     3.03           OBSERVATION DATA    M                   RINEX VERSION / TYPE
JPS2RIN v.2.0.146   JAVAD GNSS          20180620 132951 UTC PGM / RUN BY / DATE
-Unknown-           -Unknown-                               OBSERVER / AGENCY
r@ver_Dump                                                  MARKER NAME
r@ver_Dump          JAVAD TRIUMPH2      3.6.0b3 May,21,2014 REC # / TYPE / VERS
  1675323.5615 -4232854.1482  4452391.7213                  APPROX POSITION XYZ
-Unknown-           JAVTRIUMPH_2A   NONE                    ANT # / TYPE
        2.0000        0.0000        0.0000                  ANTENNA: DELTA H/E/N
G   16 C1C L1C D1C S1C C1W L1W D1W S1W C2X L2X D2X S2X C2W  SYS / # / OBS TYPES
       L2W D2W S2W                                          SYS / # / OBS TYPES
R   16 C1C L1C D1C S1C C1P L1P D1P S1P C2C L2C D2C S2C C2P  SYS / # / OBS TYPES
       L2P D2P S2P                                          SYS / # / OBS TYPES
 22 R01  1 R02 -4 R03  5 R04  6 R05  1 R06 -4 R07  5 R08  6 GLONASS SLOT / FRQ #
    R09 -2 R10 -7 R11  0 R12 -1 R13 -2 R14 -7 R15  0 R16 -1 GLONASS SLOT / FRQ #
    R17  4 R18 -3 R19  3 R20  2 R21  4 R24  2               GLONASS SLOT / FRQ #
    30.000                                                  INTERVAL
  2014     9    18    22    58    0.0000000     GPS         TIME OF FIRST OBS
  2014     9    19     8    57   30.0000000     GPS         TIME OF LAST OBS
    16                                                      LEAP SECONDS
G L1C  0.00000  21 G02 G03 G05 G12 G13 G14 G15 G16 G18 G20  SYS / PHASE SHIFT
                   G21 G22 G23 G24 G25 G26 G27 G29 G30 G31  SYS / PHASE SHIFT
                   G32                                      SYS / PHASE SHIFT
G L1W -0.25000  21 G02 G03 G05 G12 G13 G14 G15 G16 G18 G20  SYS / PHASE SHIFT
                   G21 G22 G23 G24 G25 G26 G27 G29 G30 G31  SYS / PHASE SHIFT
                   G32                                      SYS / PHASE SHIFT
G L2X  0.25000  09 G05 G12 G15 G24 G25 G27 G29 G30 G31      SYS / PHASE SHIFT
G L2W  0.00000  21 G02 G03 G05 G12 G13 G14 G15 G16 G18 G20  SYS / PHASE SHIFT
                   G21 G22 G23 G24 G25 G26 G27 G29 G30 G31  SYS / PHASE SHIFT
                   G32                                      SYS / PHASE SHIFT
R L1C  0.00000  21 R01 R02 R03 R04 R05 R06 R07 R08 R09 R10  SYS / PHASE SHIFT
                   R11 R12 R13 R14 R15 R16 R17 R18 R19 R20  SYS / PHASE SHIFT
                   R24                                      SYS / PHASE SHIFT
R L1P -0.25000  21 R01 R02 R03 R04 R05 R06 R07 R08 R09 R10  SYS / PHASE SHIFT
                   R11 R12 R13 R14 R15 R16 R17 R18 R19 R20  SYS / PHASE SHIFT
                   R24                                      SYS / PHASE SHIFT
R L2C  0.25000  21 R01 R02 R03 R04 R05 R06 R07 R08 R09 R10  SYS / PHASE SHIFT
                   R11 R12 R13 R14 R15 R16 R17 R18 R19 R20  SYS / PHASE SHIFT
                   R24                                      SYS / PHASE SHIFT
R L2P  0.00000  21 R01 R02 R03 R04 R05 R06 R07 R08 R09 R10  SYS / PHASE SHIFT
                   R11 R12 R13 R14 R15 R16 R17 R18 R19 R20  SYS / PHASE SHIFT
                   R24                                      SYS / PHASE SHIFT
    42                                                      # OF SATELLITES
   G02   102   102   102   102   102   102   102   102     0PRN / # OF OBS
           0     0     0   102   102   102   102            PRN / # OF OBS
   G03   335   335   335   335   335   335   335   335     0PRN / # OF OBS
           0     0     0   335   335   335   335            PRN / # OF OBS
   G05   270   270   270   270   270   270   270   270   270PRN / # OF OBS
         270   270   270   270   270   270   270            PRN / # OF OBS
   G12   407   407   407   407   403   403   403   403   407PRN / # OF OBS
         407   407   407   403   403   403   403            PRN / # OF OBS
   G13    20    20    20    20    20    20    20    20     0PRN / # OF OBS
           0     0     0    20    20    20    20            PRN / # OF OBS
   G14   733   733   733   733   729   729   729   729     0PRN / # OF OBS
           0     0     0   729   729   729   729            PRN / # OF OBS
   G15   594   594   594   594   594   594   594   594   594PRN / # OF OBS
         594   594   594   594   594   594   594            PRN / # OF OBS
   G16   207   207   207   207   207   207   207   207     0PRN / # OF OBS
           0     0     0   207   207   207   207            PRN / # OF OBS
   G18   701   701   701   701   701   701   701   701     0PRN / # OF OBS
           0     0     0   701   701   701   701            PRN / # OF OBS
   G20   289   289   289   289   289   289   289   289     0PRN / # OF OBS
           0     0     0   289   289   289   289            PRN / # OF OBS
   G21   571   571   571   571   571   571   571   571     0PRN / # OF OBS
           0     0     0   571   571   571   571            PRN / # OF OBS
   G22   632   632   632   632   632   632   632   632     0PRN / # OF OBS
           0     0     0   632   632   632   632            PRN / # OF OBS
   G23   144   144   144   144   144   144   144   144     0PRN / # OF OBS
           0     0     0   144   144   144   144            PRN / # OF OBS
   G24   571   571   571   571   571   571   571   571   571PRN / # OF OBS
         571   571   571   571   571   571   571            PRN / # OF OBS
   G25   501   501   501   501   501   501   501   501   501PRN / # OF OBS
         501   501   501   501   501   501   501            PRN / # OF OBS
   G26   381   381   381   381   381   381   381   381     0PRN / # OF OBS
           0     0     0   381   381   381   381            PRN / # OF OBS
   G27     4     4     4     4     4     4     4     4     4PRN / # OF OBS
           4     4     4     4     4     4     4            PRN / # OF OBS
   G29   486   486   486   486   485   485   485   485   485PRN / # OF OBS
         485   485   485   484   485   485   484            PRN / # OF OBS
   G30   149   149   149   149   149   149   149   149   149PRN / # OF OBS
         149   149   149   149   149   149   149            PRN / # OF OBS
   G31   562   562   562   562   562   562   562   562   562PRN / # OF OBS
         562   562   562   562   562   562   562            PRN / # OF OBS
   G32   493   493   493   493   493   493   493   493     0PRN / # OF OBS
           0     0     0   493   493   493   493            PRN / # OF OBS
   R01   113   113   113   113   113   113   113   113   113PRN / # OF OBS
         113   113   113   113   113   113   113            PRN / # OF OBS
   R02   371   371   371   371   371   371   371   371   371PRN / # OF OBS
         371   371   371   371   371   371   371            PRN / # OF OBS
   R03   618   618   618   618   618   618   618   618   618PRN / # OF OBS
         618   618   618   618   618   618   618            PRN / # OF OBS
   R04   635   635   635   635   635   635   635   635   635PRN / # OF OBS
         635   635   635   635   635   635   635            PRN / # OF OBS
   R05   565   565   565   565   565   565   565   565   565PRN / # OF OBS
         565   565   565   565   565   565   565            PRN / # OF OBS
   R06   493   493   493   493   493   493   493   493   493PRN / # OF OBS
         493   493   493   493   493   493   493            PRN / # OF OBS
   R07   296   296   296   296   296   296   296   296   296PRN / # OF OBS
         296   296   296   296   296   296   296            PRN / # OF OBS
   R08    95    95    95    95    95    95    95    95    95PRN / # OF OBS
          95    95    95    95    95    95    95            PRN / # OF OBS
   R09   290   290   290   290   290   290   290   290   290PRN / # OF OBS
         290   290   290   290   290   290   290            PRN / # OF OBS
   R10    43    43    43    43    43    43    43    43    43PRN / # OF OBS
          43    43    43    43    43    43    43            PRN / # OF OBS
   R11   195   195   195   195   195   195   195   195   195PRN / # OF OBS
         195   195   195   195   195   195   195            PRN / # OF OBS
   R12   328   328   328   328   328   328   328   328   328PRN / # OF OBS
         328   328   328   328   328   328   328            PRN / # OF OBS
   R13   422   422   422   422   422   422   422   422   422PRN / # OF OBS
         422   422   422   422   422   422   422            PRN / # OF OBS
   R14   503   503   503   503   503   503   503   503   503PRN / # OF OBS
         503   503   503   503   503   503   503            PRN / # OF OBS
   R15   567   567   567   567   567   567   567   567   567PRN / # OF OBS
         567   567   567   567   567   567   567            PRN / # OF OBS
   R16   505   505   505   505   505   505   505   505   505PRN / # OF OBS
         505   505   505   505   505   505   505            PRN / # OF OBS
   R17   415   415   415   415   415   415   415   415   415PRN / # OF OBS
         415   415   415   415   415   415   415            PRN / # OF OBS
   R18   514   514   514   514   514   514   514   514   514PRN / # OF OBS
         514   514   514   514   514   514   514            PRN / # OF OBS
   R19   346   346   346   346   345   345   345   345   345PRN / # OF OBS
         345   345   345   345   345   345   345            PRN / # OF OBS
   R20   174   174   174   174   174   174   174   174   174PRN / # OF OBS
         174   174   174   174   174   174   174            PRN / # OF OBS
   R24    61    61    61    61    61    61    61    61    61PRN / # OF OBS
          61    61    61    61    61    61    61            PRN / # OF OBS
                                                            END OF HEADER
