     3.03           OBSERVATION DATA    M                   RINEX VERSION / TYPE
JPS2RIN v.2.0.175   JAVAD GNSS          20191126 181654 UTC PGM / RUN BY / DATE
                                                            OBSERVER / AGENCY
stst290519                                                  MARKER NAME
8RU5U719HXC         JAVAD EGGDT GB1000  3.5 Feb,01,2019 p5  REC # / TYPE / VERS
  2350334.1364  2723366.8634  5249338.5561                  APPROX POSITION XYZ
-Unknown-           JAVGRANT_G3     NONE                    ANT # / TYPE
        2.0000        0.0000        0.0000                  ANTENNA: DELTA H/E/N
G   11 C1C L1C D1C S1C C1W L1W S1W C2W L2W D2W S2W          SYS / # / OBS TYPES
R   11 C1C L1C D1C S1C C1P L1P S1P C2P L2P D2P S2P          SYS / # / OBS TYPES
  7 R05  1 R06 -4 R13 -2 R14 -7 R21  4 R22 -3 R23  3        GLONASS SLOT / FRQ #
1000000.000                                                 INTERVAL
  2019     5    28    12    35   50.0000000     GPS         TIME OF FIRST OBS
  2019     5    28    12    35   50.0000000     GPS         TIME OF LAST OBS
G L1C  0.00000  05 G02 G05 G26 G29 G31                      SYS / PHASE SHIFT
G L1W -0.25000  05 G02 G05 G26 G29 G31                      SYS / PHASE SHIFT
G L2W  0.00000  05 G02 G05 G26 G29 G31                      SYS / PHASE SHIFT
R L1C  0.00000  07 R05 R06 R13 R14 R21 R22 R23              SYS / PHASE SHIFT
R L1P -0.25000  07 R05 R06 R13 R14 R21 R22 R23              SYS / PHASE SHIFT
R L2P  0.00000  06 R05 R13 R14 R21 R22 R23                  SYS / PHASE SHIFT
    12                                                      # OF SATELLITES
   G02     1     1     1     1     1     1     1     1     1PRN / # OF OBS
           1     1                                          PRN / # OF OBS
   G05     1     1     1     1     1     1     1     1     1PRN / # OF OBS
           1     1                                          PRN / # OF OBS
   G26     1     1     1     1     1     1     1     1     1PRN / # OF OBS
           1     1                                          PRN / # OF OBS
   G29     1     1     1     1     1     1     1     1     1PRN / # OF OBS
           1     1                                          PRN / # OF OBS
   G31     1     1     1     1     1     1     1     1     1PRN / # OF OBS
           1     1                                          PRN / # OF OBS
   R05     1     1     1     1     1     1     1     1     1PRN / # OF OBS
           1     1                                          PRN / # OF OBS
   R06     1     1     1     1     1     1     1     0     0PRN / # OF OBS
           0     0                                          PRN / # OF OBS
   R13     1     1     1     1     1     1     1     1     1PRN / # OF OBS
           1     1                                          PRN / # OF OBS
   R14     1     1     1     1     1     1     1     1     1PRN / # OF OBS
           1     1                                          PRN / # OF OBS
   R21     1     1     1     1     1     1     1     1     1PRN / # OF OBS
           1     1                                          PRN / # OF OBS
   R22     1     1     1     1     1     1     1     1     1PRN / # OF OBS
           1     1                                          PRN / # OF OBS
   R23     1     1     1     1     1     1     1     1     1PRN / # OF OBS
           1     1                                          PRN / # OF OBS
                                                            END OF HEADER
> 2019 05 28 12 35 50.0000000  0 12       0.000471595996
G02  23747231.782   124792528.604 7     -2688.016          44.000    23747231.152   124792528.583 5        32.000    23747233.942    97240939.156 5     -2094.563          32.000
G05  21563246.428   113315622.945 7       147.210          46.000    21563247.448   113315622.898 4        28.000    21563248.768    88297894.884 4       114.714          28.000
G26  22881532.104   120243275.147 8      2647.343          48.000    22881530.874   120243275.145 6        41.000    22881539.144    93696073.540 6      2062.867          41.000
G29  20255843.464   106445179.141 8        24.696          49.000    20255842.924   106445179.136 6        37.000    20255845.844    82944300.530 6        19.250          37.000
G31  24239984.341   127381960.949 6     -2384.258          41.000    24239984.401   127381960.894 4        24.000    24239988.621    99258681.852 4     -1857.862          24.000
R05  23767474.599   127050773.908 8     -3265.283          48.000    23767474.349   127050774.905 7        47.000    23767478.479    98817284.196 7     -2539.655          44.000
R06  21278519.087   113546295.341 7       408.669          42.000    21278518.197   113546296.340 6        41.000
R13  20713050.056   110606588.256 7      -320.804          45.000    20713051.466   110606589.270 7        44.000    20713051.796    86027339.796 6      -249.520          40.000
R14  22863634.458   121876107.017 8      3401.459          49.000    22863636.598   121876108.043 8        50.000    22863639.928    94792528.597 8      2645.582          49.000
R21  22593905.409   120904544.510 7     -3360.240          42.000    22593903.779   120904545.492 7        42.000    22593908.609    94036874.309 6     -2613.537          38.000
R22  19474172.990   103954486.352 8      -485.901          49.000    19474173.340   103954487.394 8        48.000    19474174.990    80853499.439 7      -377.916          44.000
R23  21496306.068   114990774.569 8      3262.852          49.000    21496305.878   114990775.566 8        48.000    21496310.678    89437272.772 6      2537.766          41.000
