     3.02           OBSERVATION DATA    R                   RINEX VERSION / TYPE
GR10 V3.22          CNES                20160327 235944 UTC PGM / RUN BY / DATE
SNR is mapped to RINEX snr flag value [1-9]                 COMMENT
LX:     < 12dBHz -> 1; 12-17dBHz -> 2; 18-23dBHz -> 3       COMMENT
       24-29dBHz -> 4; 30-35dBHz -> 5; 36-41dBHz -> 6       COMMENT
       42-47dBHz -> 7; 48-53dBHz -> 8; >= 54dBHz -> 9       COMMENT
CIBG                                                        MARKER NAME
23101M005                                                   MARKER NUMBER
REGINA              CNES                                    OBSERVER / AGENCY
1700870             LEICA GR10          3.22/6.521          REC # / TYPE / VERS
725039              LEIAR25.R4      LEIT                    ANT # / TYPE                                                
 -1837002.6304  6065627.3599  -716183.2716                  APPROX POSITION XYZ                                         
        0.0000        0.0000        0.0000                  ANTENNA: DELTA H/E/N                                        
R    8 C1C L1C D1C S1C C2P L2P D2P S2P                      SYS / # / OBS TYPES
DBHZ                                                        SIGNAL STRENGTH UNIT
    30.000                                                  INTERVAL                                                    
  2016    03    28    00    00    0.0000000     GLO         TIME OF FIRST OBS
  2016    03    28    23    59   30.0000000     GLO         TIME OF LAST OBS
     0                                                      RCV CLOCK OFFS APPL
R L2P  0.25000                                              SYS / PHASE SHIFT
 24 R01  1 R02 -4 R03  5 R04  6 R05  1 R06 -4 R07  5 R08  6 GLONASS SLOT / FRQ #
    R09 -6 R10 -7 R11  0 R12 -1 R13 -2 R14 -7 R15  0 R16 -1 GLONASS SLOT / FRQ #
    R17  4 R18 -3 R19  3 R20  2 R21  4 R22 -3 R23  3 R24  2 GLONASS SLOT / FRQ #
 C1C  -71.940 C1P  -71.940 C2C  -71.940 C2P  -71.940        GLONASS COD/PHS/BIS
    17    17  1851     3                                    LEAP SECONDS
                                                            END OF HEADER

> 2016 03 28 00 00  0.0000000  0 8
R01  24256905.467   129667021.28506       211.353          38.500    24256909.253   100852119.76204       164.385          29.700  
R08  24460905.324   130987050.29706       696.969          36.800    24460906.705   101878803.64604       542.077          29.900  
R10  24283153.542   129442842.57407     -3328.734          42.650  
R11  20365571.881   108827491.91107     -1132.299          47.100  
R13  23906356.085   127658612.63306      3954.929          37.600    23906357.101    99290022.96806      3076.055          36.200  
R22  22155087.326   118265374.39007     -3552.090          46.700    22155088.781    91984190.72206     -2762.739          41.200  
R23  20019008.487   107088214.67208     -1181.700          49.350    20019010.437    83290837.61706      -919.100          40.600  
R24  21820927.352   116686298.36507      1871.162          42.550    21820924.943    90755999.88005      1455.349          31.000  


> 2016 03 28 00 00 30.0000000  0 8
R01  24255679.822   129660469.58706       225.260          39.600    24255683.482   100847023.94504       175.199          29.500  
R08  24456972.687   130965990.71705       707.099          33.950    24456973.643   101862423.86605       549.959          31.500  
R10  24301915.881   129542856.31906     -3339.058          41.150    24301922.495   100755605.74914     -2597.047          26.850  
R11  20371991.321   108861795.95507     -1154.713          47.750  
R13  23884122.733   127539887.74705      3959.695          35.150    23884123.817    99197681.31706      3079.761          36.700  
R22  22175049.631   118371934.10407     -3552.085          46.100    22175050.957    92067070.41106     -2762.736          41.650  
R23  20025686.336   107123932.75608     -1199.502          50.400    20025687.032    83318618.36906      -932.945          41.000  
R24  21810481.293   116630440.69207      1852.761          43.250    21810479.072    90712554.99205      1441.035          31.500  


> 2016 03 28 00 01  0.0000000  0 8
R01  24254380.154   129653521.16806       238.629          41.650    24254383.557   100841619.55504       185.599          27.700  
R08  24452984.199   130944633.96506       717.326          36.200    24452985.351   101845812.90105       557.911          31.050  
R10  24320739.804   129643198.68007     -3349.975          44.500    24320747.610   100833649.69205     -2605.542          30.300  
R11  20378538.462   108896780.94108     -1177.294          48.300  
R13  23861865.803   127421037.32506      3964.357          36.650    23861867.337    99105242.02806      3083.383          36.750  
R22  22195013.856   118478503.60407     -3552.214          45.550    22195015.264    92149957.70306     -2762.836          41.300  
R23  20032465.501   107160194.39508     -1217.616          49.350    20032466.066    83346821.86606      -947.035          41.700  
R24  21800141.896   116575153.11407      1833.621          43.500    21800140.409    90669553.53405      1426.149          32.700  


> 2016 03 28 00 01 30.0000000  0 8
R01  24253006.441   129646175.89506       251.468          41.150  
R08  24448940.009   130922981.17405       726.827          33.700    24448942.252   101828971.69104       565.300          29.300  
R10  24339624.069   129743865.99206     -3360.760          37.850    24339632.337   100911946.40004     -2613.923          26.750  
R11  20385212.994   108932446.64708     -1200.219          48.050  
R13  23839585.662   127302063.99505      3968.339          35.950    23839587.853    99012707.17006      3086.484          37.250  
R22  22214979.164   118585079.35607     -3552.632          45.750    22214980.643    92232849.88806     -2763.160          41.150  
R23  20039344.168   107196996.47808     -1235.671          48.600    20039346.331    83375445.63106      -961.080          41.300  
R24  21789909.535   116520436.17007      1814.332          44.050    21789908.326    90626995.90805      1411.147          31.950  


> 2016 03 28 00 02  0.0000000  0 8
R01  24251558.869   129638436.82506       264.493          41.750    24251562.084   100829941.07314       205.717          28.500  
R08  24444841.791   130901037.71505       736.433          34.900    24444844.330   101811904.48604       572.781          29.400  
R10  24358569.594   129844859.39806     -3371.994          38.500  
R11  20392015.295   108968796.40507     -1222.848          47.850  
R13  23817283.791   127182973.96106      3971.372          36.250    23817285.732    98920081.53706      3088.841          36.700  
R22  22234945.307   118691660.68107     -3552.503          44.550    22234947.002    92315746.39306     -2763.060          41.300  
R23  20046325.207   107234338.68508     -1253.473          50.400    20046326.680    83404489.54406      -974.924          40.300  
R24  21779784.971   116466293.59107      1795.470          44.150    21779783.091    90584884.98605      1396.476          31.300  


> 2016 03 28 00 02 30.0000000  0 8
R01  24250036.776   129630299.85206       277.812          40.800    24250039.926   100823612.21304       216.073          28.450  
R08  24440689.696   130878801.78406       746.145          39.050    24440692.899   101794609.77905       580.337          32.500  
R10  24377575.722   129946172.78406     -3382.591          40.600  
R11  20398945.097   109005825.75507     -1245.638          47.900  
R13  23794960.129   127063766.83305      3974.966          34.100    23794961.995    98827364.90606      3091.645          37.350  
R22  22254911.182   118798240.55807     -3552.734          44.800    22254913.345    92398641.77106     -2763.239          40.950  
R23  20053406.389   107272214.06408     -1271.314          50.050    20053406.563    83433948.20806      -988.798          40.350  
R24  21769767.178   116412722.32407      1776.109          43.850    21769764.649    90543218.43805      1381.420          31.150  


> 2016 03 28 00 03  0.0000000  0 8
R01  24248440.303   129621765.78506       290.872          41.800    24248443.942   100816974.49604       226.229          28.900  
R08  24436483.175   130856276.28306       755.519          40.350    24436485.958   101777089.78005       587.619          32.200  
R10  24396641.769   130047803.22206     -3392.879          39.550  
R11  20406001.906   109043535.36608     -1268.560          48.000  
R13  23772615.186   126944446.15805      3978.908          35.700    23772616.736    98734559.87406      3094.705          37.050  
R22  22274876.605   118904815.89707     -3552.608          45.600    22274878.356    92481533.61906     -2763.142          40.650  
R23  20060584.766   107310619.81907     -1289.171          47.650    20060586.512    83463819.31206     -1002.691          41.650  
R24  21759856.391   116359723.59807      1756.831          44.600    21759853.625    90501997.17905      1366.423          31.050  


> 2016 03 28 00 03 30.0000000  0 8
R01  24246769.888   129612837.54506       303.760          39.350    24246773.568   100810030.21204       236.253          29.500  
R08  24432224.293   130833465.94606       764.474          38.650    24432226.798   101759348.33505       594.585          32.700  
R10  24415767.295   130149750.63906     -3403.866          37.050    24415775.904   101227641.07314     -2647.454          26.550  
R11  20413186.440   109081927.60507     -1291.498          47.500  
R13  23750250.271   126825017.78505      3982.336          35.450    23750251.683    98641671.12606      3097.375          38.900  
R22  22294840.932   119011386.23807     -3552.451          44.500    22294841.975    92564421.56706     -2763.020          40.050  
R23  20067863.028   107349554.91308     -1306.975          49.950    20067865.611    83494102.09406     -1016.537          41.750  
R24  21750053.258   116307300.83607      1737.590          44.100    21750050.478    90461223.92005      1351.459          31.550  


> 2016 03 28 00 04  0.0000000  0 8
R01  24245025.096   129603510.84806       317.636          39.800    24245028.956   100802776.01504       247.045          29.100  
R08  24427911.378   130810369.04707       774.687          42.550    24427913.510   101741383.98105       602.533          34.200  
R10  24434950.731   130252008.74207     -3413.789          43.100    24434959.414   101307171.00715     -2655.166          31.500  
R11  20420497.956   109120998.61307     -1313.708          47.800  
R13  23727864.987   126705481.04606      3986.017          36.350    23727866.607    98548698.09006      3100.235          38.050  
R22  22314802.955   119117943.86007     -3551.475          44.600    22314803.818    92647299.65606     -2762.261          40.150  
R23  20075240.072   107389012.34108     -1323.887          49.950    20075241.802    83524791.22306     -1029.688          40.900  
R24  21740356.875   116255450.50707      1718.903          43.650    21740354.081    90420895.85605      1336.924          31.900  


> 2016 03 28 00 04 30.0000000  0 8
R01  24243206.082   129593787.11006       330.513          40.350    24243209.798   100795213.04304       257.060          29.150  
R08  24423545.383   130786988.47405       783.760          35.500    24423547.242   101723199.00104       609.585          29.450  
R10  24454192.421   130354576.16706     -3424.142          40.500  
R11  20427936.792   109160749.12907     -1336.548          47.650  
R13  23705459.999   126585840.28006      3989.458          36.050    23705461.870    98455644.15306      3102.912          38.700  
R22  22334761.887   119224486.70707     -3551.314          43.300    22334762.968    92730166.20306     -2762.137          39.900  
R23  20082712.995   107428989.63207     -1341.516          47.600    20082714.510    83555884.66706     -1043.403          40.550  
R24  21730767.853   116204174.36907      1699.437          43.750    21730765.225    90381014.38805      1321.783          31.950  


> 2016 03 28 00 05  0.0000000  0 8
R01  24241313.131   129583667.82806       343.784          41.250    24241316.786   100787342.38804       267.386          29.750  
R08  24419126.828   130763327.87406       792.997          36.900    24419129.346   101704796.22605       616.768          31.600  
R10  24473491.462   130457450.74906     -3434.518          38.700    24473500.563   101466967.01614     -2671.305          26.250  
R11  20435503.167   109201179.93708     -1359.358          48.100  
R13  23683036.500   126466099.54906      3992.816          36.300    23683038.650    98362512.45306      3105.525          39.250  
R22  22354717.526   119331012.33807     -3550.788          42.700    22354719.048    92813019.37606     -2761.726          39.900  
R23  20090282.407   107469484.64008     -1358.762          49.350    20090284.596    83587380.72006     -1056.814          41.250  
R24  21721286.463   116153474.07107      1680.084          43.750    21721284.267    90341580.81405      1306.732          31.550  


> 2016 03 28 00 05 30.0000000  0 8
R01  24239345.931   129573152.43506       357.427          40.100    24239349.696   100779163.65004       277.997          29.800  
R08  24414656.663   130739389.37706       802.835          39.350    24414658.783   101686177.27405       624.421          32.200  
R10  24492847.865   130560630.78305     -3444.444          33.600  
R11  20443196.639   109242290.55707     -1381.361          47.600  
R13  23660594.908   126346262.46606      3996.495          37.950    23660597.096    98269305.79206      3108.384          39.250  
R22  22374669.424   119437517.29407     -3549.465          43.200    22374671.433    92895856.47706     -2760.698          39.800  
R23  20097949.516   107510493.88808     -1375.174          50.100    20097951.283    83619276.80506     -1069.580          41.550  
R24  21711913.052   116103349.94007      1661.528          43.850    21711910.593    90302595.35605      1292.299          31.700  


> 2016 03 28 00 06  0.0000000  0 8
R01  24237304.753   129562240.44406       370.385          41.050    24237308.638   100770676.44905       288.074          30.850  
R08  24410134.252   130715174.39406       811.887          39.400    24410136.660   101667343.30005       631.464          34.050  
R10  24512260.314   130664111.65006     -3453.882          36.650  
R11  20451016.538   109284079.69207     -1404.227          47.000  
R13  23638135.643   126226330.93306      3999.141          37.600    23638137.795    98176025.70506      3110.442          37.700  
R22  22394616.566   119543997.34007     -3549.061          43.200    22394618.842    92978674.18606     -2760.385          39.250  
R23  20105711.098   107552012.88208     -1392.511          48.750    20105712.714    83651569.34206     -1083.065          40.600  
R24  21702647.231   116053801.69707      1642.096          43.800    21702644.946    90264057.80605      1277.186          31.900  


> 2016 03 28 00 06 30.0000000  0 8
R01  24235189.050   129550931.88606       384.205          38.250    24235193.516   100761880.79805       298.822          30.350  
R08  24405561.251   130690684.49806       821.456          38.550    24405563.291   101648295.47405       638.906          32.900  
R10  24531728.826   130767890.20005     -3463.776          35.200  
R11  20458963.677   109326546.49707     -1426.631          46.950  
R13  23615659.258   126106308.40806      4002.551          39.000    23615661.357    98082674.78206      3113.093          39.950  
R22  22414558.615   119650448.48307     -3547.613          42.950    22414560.731    93061469.42806     -2759.258          38.950  
R23  20113566.558   107594037.80008     -1408.921          49.150    20113568.453    83684255.33906     -1095.829          40.750  
R24  21693489.125   116004829.33507      1623.050          44.150    21693487.090    90225968.15205      1262.370          32.200  


> 2016 03 28 00 07  0.0000000  0 7
R01  24232999.253   129539227.00306       397.115          37.850    24233003.907   100752776.97404       308.867          29.450  
R08  24400937.128   130665922.37806       830.344          38.850    24400939.030   101629035.96005       645.820          30.350  
R11  20467037.538   109369690.96307     -1449.048          47.750  
R13  23593166.617   125986198.28406      4005.629          37.800    23593168.896    97989255.78306      3115.489          39.600  
R22  22434494.740   119756868.05407     -3546.515          43.850    22434496.936    93144240.11506     -2758.405          38.700  
R23  20121517.230   107636565.60608     -1425.567          50.000    20121518.518    83717332.52306     -1108.773          41.100  
R24  21684438.910   115956433.79007      1603.878          44.100    21684436.850    90188327.16705      1247.459          32.000  


> 2016 03 28 00 07 30.0000000  0 7
R01  24230735.299   129527124.94306       409.817          40.600    24230739.903   100743364.16305       318.742          30.750  
R08  24396262.659   130640889.21406       838.456          41.950    24396264.505   101609565.57505       652.132          34.200  
R11  20475238.240   109413511.38108     -1472.296          48.400  
R13  23570657.771   125866002.65606      4007.353          38.250    23570660.077    97895770.25106      3116.829          39.350  
R22  22454424.151   119863251.39707     -3545.769          43.050    22454426.432    93226982.63406     -2757.824          38.650  
R23  20129560.599   107679591.36508     -1442.777          49.200    20129562.007    83750796.96906     -1122.163          41.150  
R24  21675496.628   115908613.76007      1584.038          44.300    21675494.480    90151133.79205      1232.028          32.650  


> 2016 03 28 00 08  0.0000000  0 8
R01  24228397.230   129514625.83806       423.119          41.700    24228401.736   100733642.55205       329.093          31.150  
R08  24391537.703   130615587.11306       847.719          40.550    24391540.020   101589886.05605       659.334          33.650  
R10  24590465.733   131081023.92215     -3493.130          32.100  
R11  20483565.278   109458007.35908     -1494.520          48.700  
R13  23548133.707   125745725.15406      4010.820          37.700    23548135.861    97802221.06906      3119.528          40.300  
R22  22474346.435   119969595.25407     -3544.195          43.600    22474348.050    93309694.45606     -2756.598          37.800  
R23  20137695.871   107723112.06508     -1458.997          48.700    20137697.949    83784646.33806     -1134.775          41.250  
R24  21666662.117   115861370.40307      1564.957          44.850    21666660.079    90114388.94505      1217.188          32.500  


> 2016 03 28 00 08 30.0000000  0 7
R01  24225985.113   129501731.56106       436.414          40.400    24225989.888   100723613.55905       339.430          30.850  
R08  24386763.484   130590020.22706       856.753          39.550    24386765.643   101570000.57905       666.359          34.050  
R11  20492018.732   109503179.91707     -1516.969          47.900  
R13  23525595.287   125625370.53206      4013.420          39.400    23525597.374    97708611.90206      3121.548          38.900  
R22  22494260.728   120075897.93107     -3542.437          43.600    22494261.892    93392374.21706     -2755.232          37.950  
R23  20145923.959   107767125.14608     -1475.228          50.200    20145925.615    83818878.73006     -1147.400          40.400  
R24  21657935.305   115814704.86907      1545.914          43.900    21657933.432    90078093.51305      1202.378          32.250  


> 2016 03 28 00 09  0.0000000  0 7
R01  24223499.162   129488444.03006       449.387          39.650    24223504.243   100713278.73604       349.524          29.100  
R08  24381940.163   130564192.23806       865.296          40.800    24381943.287   101549911.99905       673.007          35.950  
R11  20500598.999   109549030.02208     -1539.849          48.650  
R13  23503043.342   125504943.73106      4015.366          39.400    23503044.948    97614946.53706      3123.062          39.000  
R22  22514166.546   120182157.99907     -3541.364          42.900    22514168.133    93475020.84906     -2754.397          37.700  
R23  20154243.953   107811629.43708     -1491.815          49.500    20154244.943    83853493.16006     -1160.302          40.850  
R24  21649317.118   115768619.43407      1526.414          44.100    21649315.281    90042249.24305      1187.209          33.550  