     3.02           OBSERVATION DATA    C                   RINEX VERSION / TYPE
GR10 V3.22          CNES                20160327 235944 UTC PGM / RUN BY / DATE
SNR is mapped to RINEX snr flag value [1-9]                 COMMENT
LX:     < 12dBHz -> 1; 12-17dBHz -> 2; 18-23dBHz -> 3       COMMENT
       24-29dBHz -> 4; 30-35dBHz -> 5; 36-41dBHz -> 6       COMMENT
       42-47dBHz -> 7; 48-53dBHz -> 8; >= 54dBHz -> 9       COMMENT
CIBG                                                        MARKER NAME
23101M005                                                   MARKER NUMBER
REGINA              CNES                                    OBSERVER / AGENCY
1700870             LEICA GR10          3.22/6.521          REC # / TYPE / VERS
725039              LEIAR25.R4      LEIT                    ANT # / TYPE                                                
 -1837002.6304  6065627.3599  -716183.2716                  APPROX POSITION XYZ                                         
        0.0000        0.0000        0.0000                  ANTENNA: DELTA H/E/N                                        
C    8 C1I L1I D1I S1I C7I L7I D7I S7I                      SYS / # / OBS TYPES
DBHZ                                                        SIGNAL STRENGTH UNIT
    30.000                                                  INTERVAL                                                    
  2016    03    28    00    00    0.0000000     BDT         TIME OF FIRST OBS
  2016    03    28    23    59   30.0000000     BDT         TIME OF LAST OBS
     0                                                      RCV CLOCK OFFS APPL
    17    17  1851     3                                    LEAP SECONDS
                                                            END OF HEADER

> 2016 03 28 00 00  0.0000000  0 8
C01  36992813.798   192631384.54707        -7.951          44.050    36992802.208   148954809.72108        -6.149          49.250  
C02  36592021.051   190544350.98206         5.861          41.050    36592011.707   147340991.49508         4.552          48.800  
C03  35937029.472   187133589.89707         3.477          44.050    35937020.589   144703495.49408         2.741          49.650  
C05  38315553.063   199519129.28306         7.039          40.050    38315545.907   154280818.17307         5.431          46.100  
C07  36193738.810   188470293.91807       373.359          43.800    36193729.756   145737149.71108       288.734          49.450  
C08  36973272.873   192529557.22807     -1107.512          43.250    36973264.047   148876046.26308      -856.323          48.350  
C10  36300312.146   189025367.57107       709.060          43.350    36300306.194   146166433.70608       548.233          48.550  
C12  22469448.977   117004321.33607     -1272.791          45.700    22469442.502    90475141.16008      -984.274          50.300  


> 2016 03 28 00 00 30.0000000  0 8
C01  36992858.739   192631618.48807        -7.547          43.900    36992847.141   148954990.60308        -5.870          49.350  
C02  36591986.029   190544168.34906         6.332          40.800    36591976.660   147340850.27308         4.786          48.950  
C03  35937008.535   187133480.65707         3.781          43.850    35936999.630   144703410.98708         3.035          49.800  
C05  38315511.362   199518911.87006         7.692          39.800    38315504.196   154280650.04407         5.745          46.000  
C07  36191597.927   188459146.37407       369.726          43.750    36191589.095   145728529.69908       285.927          49.450  
C08  36979654.519   192562788.17607     -1108.041          43.250    36979645.665   148901742.51608      -856.705          48.450  
C10  36296235.043   189004136.69507       706.593          43.550    36296229.057   146150016.62708       546.306          48.600  
C12  22476799.348   117042595.70907     -1278.716          45.850    22476792.646    90504737.31208      -988.799          50.200  


> 2016 03 28 00 01  0.0000000  0 8
C01  36992903.650   192631852.11807        -7.754          43.850    36992892.065   148955171.23908        -5.942          49.050  
C02  36591950.868   190543985.59706         6.326          40.850    36591941.564   147340708.91808         4.759          48.800  
C03  35936987.593   187133371.70007         3.736          43.950    35936978.748   144703326.70808         3.007          49.650  
C05  38315469.519   199518694.48706         7.745          39.800    38315462.458   154280481.91907         5.778          46.050  
C07  36189480.315   188448119.93007       365.612          43.600    36189471.662   145720003.33108       282.806          49.250  
C08  36986040.985   192596044.10807     -1108.736          43.000    36986032.104   148927458.07508      -857.320          48.250  
C10  36292174.249   188982990.20807       703.604          43.750    36292168.126   146133664.81008       544.120          48.400  
C12  22484185.805   117081057.53807     -1284.949          45.950    22484178.830    90534478.40908      -993.620          50.100  


> 2016 03 28 00 01 30.0000000  0 8
C01  36992948.436   192632085.25707        -7.796          44.100    36992936.840   148955351.48508        -5.953          49.200  
C02  36591915.651   190543802.34306         6.186          41.000    36591906.454   147340567.17908         4.814          48.800  
C03  35936966.696   187133262.75207         3.662          44.150    35936957.859   144703242.44908         2.786          49.600  
C05  38315427.746   199518476.84106         6.977          40.100    38315420.667   154280313.54007         5.563          45.950  
C07  36187385.937   188437214.47607       361.555          43.800    36187377.416   145711570.52708       279.578          49.300  
C08  36992431.948   192629323.77407     -1109.671          43.100    36992423.113   148953192.00408      -858.080          48.200  
C10  36288129.774   188961928.40607       700.657          43.850    36288123.464   146117378.47308       541.754          48.450  
C12  22491607.731   117119704.38707     -1291.202          45.900    22491600.631    90564362.56408      -998.469          50.100  


> 2016 03 28 00 02  0.0000000  0 8
C01  36992993.746   192632321.12607        -7.549          44.050    36992982.153   148955533.85908        -5.941          49.200  
C02  36591881.042   190543621.74406         6.054          41.050    36591871.795   147340427.49208         4.887          48.800  
C03  35936946.418   187133156.99907         3.596          44.100    35936937.557   144703160.64808         2.856          49.600  
C05  38315386.498   199518261.92006         7.365          39.950    38315379.422   154280147.32507         5.665          45.900  
C07  36185315.631   188426433.71407       357.437          44.200    36185307.076   145703234.13508       276.461          49.300  
C08  36998827.939   192662629.50507     -1110.357          43.200    36998819.121   148978946.07608      -858.642          48.250  
C10  36284102.225   188940954.97607       697.954          44.100    36284095.744   146101160.45908       539.551          48.550  
C12  22499065.148   117158537.27407     -1297.354          45.500    22499058.244    90594390.58608     -1003.167          50.200  


> 2016 03 28 00 02 30.0000000  0 8
C01  36993038.789   192632555.85207        -7.760          44.000    36993027.242   148955715.34708        -6.014          49.250  
C02  36591846.217   190543440.08606         5.997          41.200    36591836.972   147340287.01608         4.690          48.800  
C03  35936926.005   187133050.67907         3.468          44.150    35936917.170   144703078.41008         2.809          49.700  
C05  38315345.128   199518046.24106         6.963          39.950    38315338.093   154279980.51907         5.616          45.950  
C07  36183268.714   188415774.09607       353.360          44.200    36183259.980   145694991.42608       273.213          49.400  
C08  37005228.098   192695957.05107     -1111.120          43.100    37005219.337   149004717.01408      -859.172          48.050  
C10  36280090.943   188920066.69707       694.871          44.100    36280084.393   146085008.30008       537.358          48.550  
C12  22506557.079   117197550.28707     -1303.368          45.550    22506550.403    90624557.89908     -1007.823          50.200  


> 2016 03 28 00 03  0.0000000  0 8
C01  36993083.799   192632790.20007        -8.137          44.100    36993072.310   148955896.53208        -6.182          49.200  
C02  36591811.203   190543258.00706         5.805          41.050    36591802.031   147340146.18808         4.454          48.850  
C03  35936905.688   187132944.42007         3.252          44.300    35936896.766   144702996.22008         2.637          49.700  
C05  38315303.610   199517830.22306         7.359          40.050    38315296.667   154279813.45107         5.471          46.150  
C07  36181245.336   188405236.70807       348.961          44.600    36181236.347   145686843.21708       269.881          49.400  
C08  37011632.464   192729306.28907     -1112.288          43.250    37011623.672   149030504.72708      -859.994          48.050  
C10  36276096.179   188899264.69907       691.849          44.300    36276089.597   146068922.86108       534.952          48.650  
C12  22514083.343   117236741.88407     -1309.542          45.350    22514076.793    90654863.30208     -1012.615          50.150  


> 2016 03 28 00 03 30.0000000  0 8
C01  36993129.242   192633026.71707        -8.108          44.100    36993117.769   148956079.42408        -6.345          49.250  
C02  36591776.718   190543078.18006         5.626          41.050    36591767.529   147340007.13308         4.325          48.850  
C03  35936885.866   187132840.92207         3.056          44.250    35936876.954   144702916.18108         2.432          49.700  
C05  38315262.651   199517616.73206         6.787          40.000    38315255.715   154279648.32807         5.224          45.950  
C07  36179246.023   188394824.56007       344.755          44.700    36179236.794   145678791.87608       266.491          49.400  
C08  37018041.468   192762679.34507     -1112.894          43.150    37018032.580   149056310.89208      -860.684          48.100  
C10  36272118.557   188878552.33807       688.636          44.150    36272112.072   146052906.74408       532.406          48.700  
C12  22521643.999   117276112.66407     -1315.639          45.300    22521637.541    90685307.27008     -1017.343          50.100  


> 2016 03 28 00 04  0.0000000  0 8
C01  36993174.422   192633261.79007        -7.597          44.200    36993162.936   148956261.16108        -6.033          49.000  
C02  36591741.935   190542896.85306         6.162          41.300    36591732.718   147339866.87108         4.699          48.650  
C03  35936865.772   187132736.48107         3.408          44.500    35936856.928   144702835.39708         2.678          49.400  
C05  38315221.462   199517401.89006         7.048          40.350    38315214.498   154279482.13207         5.839          45.600  
C07  36177269.975   188384534.30307       340.845          44.550    36177260.659   145670834.75608       263.646          49.150  
C08  37024454.123   192796071.35307     -1113.265          43.450    37024445.127   149082131.65307      -860.948          47.800  
C10  36268157.592   188857926.22707       686.085          44.250    36268151.101   146036957.29708       530.551          48.400  
C12  22529237.948   117315656.73907     -1320.945          45.400    22529231.547    90715885.21008     -1021.483          49.950  


> 2016 03 28 00 04 30.0000000  0 8
C01  36993219.462   192633496.28307        -7.962          44.000    36993208.005   148956442.46108        -6.283          49.050  
C02  36591707.058   190542715.04906         5.952          41.100    36591697.833   147339726.26908         4.467          48.600  
C03  35936845.720   187132632.02207         3.254          44.200    35936836.876   144702754.59808         2.569          49.450  
C05  38315180.248   199517186.80706         6.798          40.000    38315173.191   154279315.77907         5.298          45.550  
C07  36175317.484   188374367.13507       336.704          44.400    36175308.207   145662972.83308       260.268          49.250  
C08  37030870.504   192829482.90307     -1114.299          43.100    37030861.472   149107967.54507      -861.651          47.800  
C10  36264213.462   188837388.00807       682.817          44.100    36264207.020   146021075.82008       528.034          48.400  
C12  22536864.996   117355372.92407     -1326.942          45.550    22536858.679    90746596.25708     -1026.106          50.000  


> 2016 03 28 00 05  0.0000000  0 8
C01  36993264.613   192633731.45407        -8.242          43.900    36993253.225   148956624.27808        -6.307          49.100  
C02  36591672.297   190542534.11006         5.812          40.850    36591663.107   147339586.32208         4.412          48.700  
C03  35936825.921   187132528.83107         3.116          44.000    35936817.102   144702674.78808         2.434          49.500  
C05  38315139.197   199516972.60406         6.811          40.100    38315132.076   154279150.12007         5.229          45.650  
C07  36173389.016   188364324.66107       332.532          44.600    36173379.763   145655207.33608       257.020          49.350  
C08  37037290.748   192862914.53607     -1115.000          43.050    37037281.677   149133818.96907      -862.195          47.850  
C10  36260286.578   188816939.47207       679.792          44.300    36260280.188   146005263.70808       525.663          48.450  
C12  22544525.071   117395260.30707     -1332.696          45.800    22544518.698    90777439.68608     -1030.577          50.150  


> 2016 03 28 00 05 30.0000000  0 8
C01  36993309.907   192633967.30407        -7.491          43.850    36993298.542   148956806.63208        -5.762          49.200  
C02  36591637.740   190542353.82506         6.463          40.900    36591628.538   147339446.90208         4.942          48.800  
C03  35936806.362   187132426.87407         3.863          44.000    35936797.537   144702595.91608         2.909          49.600  
C05  38315098.290   199516759.38606         7.492          39.850    38315091.168   154278985.19307         5.826          45.800  
C07  36171484.549   188354407.21807       328.806          44.500    36171475.390   145647538.50208       254.326          49.600  
C08  37043714.660   192896365.29807     -1115.024          42.950    37043705.594   149159685.18408      -862.202          48.000  
C10  36256377.029   188796580.99907       677.454          44.150    36256370.589   145989521.22008       523.881          48.550  
C12  22552217.619   117435316.63507     -1337.591          45.450    22552211.179    90808413.75108     -1034.356          50.250  


> 2016 03 28 00 06  0.0000000  0 8
C01  36993355.168   192634203.09807        -7.925          44.000    36993343.846   148956988.94208        -6.162          49.150  
C02  36591603.108   190542173.41606         6.068          40.950    36591593.933   147339307.37408         4.576          48.850  
C03  35936786.869   187132325.26707         3.414          44.050    35936778.048   144702517.33708         2.530          49.650  
C05  38315057.388   199516546.20506         6.920          40.150    38315050.213   154278820.31807         5.366          45.800  
C07  36169603.910   188344614.31307       324.303          44.400    36169594.895   145639965.97808       250.794          49.450  
C08  37050141.932   192929833.81707     -1115.862          43.200    37050132.930   149185565.12507      -862.874          47.900  
C10  36252484.739   188776312.26107       674.252          44.350    36252478.188   145973848.14508       521.196          48.600  
C12  22559941.913   117475539.01607     -1343.520          45.550    22559935.511    90839516.21008     -1038.880          50.100  


> 2016 03 28 00 06 30.0000000  0 8
C01  36993400.361   192634438.44807        -7.572          44.000    36993389.058   148957170.89008        -5.781          49.050  
C02  36591568.403   190541992.63606         6.279          40.950    36591559.237   147339167.53708         4.915          48.650  
C03  35936767.396   187132223.80907         3.770          44.050    35936758.593   144702438.85608         2.811          49.450  
C05  38315016.413   199516332.76706         7.570          40.050    38315009.251   154278655.25807         5.576          45.400  
C07  36167747.260   188334946.03307       320.422          44.700    36167738.225   145632489.82508       247.878          49.350  
C08  37056572.504   192963319.37407     -1116.061          43.050    37056563.507   149211458.23907      -863.010          47.700  
C10  36248609.748   188756133.86107       671.232          44.050    36248603.091   145958244.89008       519.123          48.450  
C12  22567697.552   117515924.98107     -1348.661          45.400    22567691.244    90870745.17508     -1042.836          50.250  


> 2016 03 28 00 07  0.0000000  0 8
C01  36993445.586   192634673.71607        -7.510          44.100    36993434.304   148957352.80208        -5.727          49.100  
C02  36591533.711   190541811.80206         6.629          41.050    36591524.553   147339027.68208         5.164          48.750  
C03  35936748.005   187132122.90607         3.695          44.200    35936739.221   144702360.80708         2.884          49.650  
C05  38314975.565   199516119.68506         7.475          40.550    38314968.381   154278490.43507         5.725          45.650  
C07  36165914.712   188325403.06607       316.408          44.800    36165905.554   145625110.57308       244.714          49.300  
C08  37063006.204   192996821.03807     -1116.643          43.400    37062997.236   149237363.80907      -863.341          47.900  
C10  36244751.967   188736046.36007       668.378          43.600    36244745.436   145942711.92508       516.924          48.400  
C12  22575484.307   117556472.80107     -1353.783          45.700    22575478.182    90902099.28208     -1046.857          50.200  


> 2016 03 28 00 07 30.0000000  0 8
C01  36993490.565   192634907.75407        -8.137          44.050    36993479.234   148957533.75208        -6.250          48.950  
C02  36591498.771   190541629.91706         5.544          41.000    36591489.655   147338887.01708         4.552          48.600  
C03  35936728.539   187132021.32107         3.240          44.000    35936719.715   144702282.23408         2.370          49.450  
C05  38314934.495   199515905.57406         6.488          40.600    38314927.280   154278324.83107         5.242          45.400  
C07  36164106.012   188315984.50807       311.468          44.550    36164096.744   145617827.53308       240.879          49.200  
C08  37069442.801   193030337.21007     -1117.688          43.650    37069433.787   149263280.61107      -864.209          47.750  
C10  36240911.461   188716049.22407       664.752          43.400    36240905.127   145927248.84108       514.070          48.200  
C12  22583301.557   117597179.10607     -1359.961          45.600    22583295.553    90933575.93308     -1051.507          50.100  


> 2016 03 28 00 08  0.0000000  0 8
C01  36993535.340   192635140.84607        -7.723          43.800    36993524.032   148957713.97908        -6.018          49.000  
C02  36591463.646   190541447.09706         5.785          40.800    36591454.556   147338745.62508         4.709          48.650  
C03  35936708.916   187131919.26107         3.623          43.950    35936700.111   144702203.28608         2.647          49.450  
C05  38314893.313   199515690.61306         6.991          40.350    38314886.039   154278158.58907         5.398          45.450  
C07  36162321.231   188306690.98507       307.624          44.200    36162311.965   145610641.16508       237.891          49.200  
C08  37075882.031   193063867.28107     -1117.973          43.400    37075873.058   149289208.16207      -864.483          47.900  
C10  36237088.497   188696143.06307       661.984          43.500    36237082.322   145911856.12608       511.866          48.300  
C12  22591148.932   117638041.99907     -1364.857          45.050    22591142.951    90965173.68108     -1055.325          50.050  


> 2016 03 28 00 08 30.0000000  0 8
C01  36993580.203   192635374.45807        -7.757          44.250    36993568.891   148957894.58908        -6.035          49.100  
C02  36591428.642   190541264.83406         6.105          41.100    36591419.575   147338604.67508         4.661          48.650  
C03  35936689.513   187131818.30207         3.437          44.400    35936680.746   144702125.19808         2.610          49.450  
C05  38314852.215   199515476.51706         6.862          40.950    38314844.900   154277992.96107         5.695          45.200  
C07  36160560.756   188297524.24407       303.459          44.400    36160551.590   145603552.83008       234.659          49.300  
C08  37082324.060   193097412.32107     -1118.402          43.850    37082315.197   149315147.25708      -864.763          48.000  
C10  36233283.506   188676330.13507       658.725          43.900    36233277.438   145896535.47608       509.544          48.300  
C12  22599025.975   117679060.83907     -1369.880          45.000    22599020.181    90996892.00308     -1059.252          50.150  


> 2016 03 28 00 09  0.0000000  0 8
C01  36993625.561   192635610.38307        -8.171          44.150    36993614.232   148958076.99608        -6.256          49.000  
C02  36591394.111   190541084.92006         5.987          41.050    36591385.019   147338465.53108         4.483          48.600  
C03  35936670.712   187131720.19107         2.958          44.050    35936661.946   144702049.29508         2.277          49.400  
C05  38314811.612   199515264.85406         7.162          40.850    38314804.333   154277829.33307         5.180          45.250  
C07  36158824.921   188288486.40807       299.006          43.800    36158816.072   145596564.17608       231.126          49.350  
C08  37088769.117   193130973.27307     -1119.265          43.700    37088760.413   149341098.68407      -865.478          47.950  
C10  36229497.007   188656612.54107       655.564          44.000    36229490.868   145881288.58508       506.937          48.100  
C12  22606932.806   117720235.23007     -1375.140          44.800    22606927.350    91028730.62408     -1063.496          50.100  


> 2016 03 28 00 09 30.0000000  0 8
C01  36993670.456   192635844.17607        -7.902          43.800    36993659.076   148958257.74608        -6.132          49.150  
C02  36591359.177   190540902.82406         5.722          40.700    36591350.062   147338324.69508         4.571          48.700  
C03  35936651.574   187131620.42607         3.060          43.900    35936642.772   144701972.12608         2.482          49.600  
C05  38314770.682   199515051.29806         7.163          40.350    38314763.335   154277664.13707         5.380          45.250  
C07  36157112.951   188279573.33407       294.939          43.500    36157104.510   145589671.98408       227.960          49.600  
C08  37095216.152   193164544.64407     -1119.259          43.400    37095207.565   149367058.17408      -865.620          48.100  
C10  36225728.120   188636986.46607       652.476          43.650    36225721.907   145866112.44508       504.570          48.400  
C12  22614868.433   117761558.61807     -1379.979          44.650    22614863.200    91060684.44708     -1067.172          50.150  


> 2016 03 28 00 10  0.0000000  0 8
C01  36993715.817   192636080.15007        -7.792          43.850    36993704.435   148958440.19308        -5.983          49.250  
C02  36591324.637   190540722.88106         6.038          41.000    36591315.524   147338185.53108         4.736          48.900  
C03  35936633.000   187131523.38407         3.202          44.100    35936624.189   144701897.10408         2.453          49.700  
C05  38314730.184   199514840.03706         7.802          40.700    38314722.684   154277500.74607         5.717          45.650  
C07  36155425.940   188270789.64007       290.867          43.800    36155417.805   145582879.85208       224.836          49.700  
C08  37101665.951   193198130.59207     -1119.328          43.400    37101657.428   149393028.93208      -865.712          48.350  
C10  36221977.678   188617456.73507       649.375          43.600    36221971.405   145851010.77608       502.348          48.600  
C12  22622833.264   117803033.16307     -1384.844          45.050    22622827.989    91092755.15708     -1070.863          50.200  


> 2016 03 28 00 10 30.0000000  0 8
C01  36993761.050   192636315.41607        -7.613          44.100    36993749.616   148958622.09508        -5.823          49.050  
C02  36591289.962   190540542.49206         6.323          41.350    36591280.887   147338046.01908         4.886          48.650  
C03  35936614.410   187131426.35207         3.429          44.300    35936605.596   144701822.02908         2.733          49.500  
C05  38314689.534   199514628.63506         7.028          41.200    38314682.145   154277337.22407         5.584          45.400  
C07  36153763.436   188262132.86407       286.748          43.900    36153755.466   145576185.84708       221.701          49.600  
C08  37108117.794   193231727.18407     -1119.627          43.650    37108109.315   149419007.91908      -865.822          48.000  
C10  36218245.252   188598021.10507       646.434          43.850    36218238.976   145835981.90508       499.924          48.300  
C12  22630826.342   117844653.84107     -1389.535          45.700    22630820.760    91124938.87308     -1074.476          50.000  


> 2016 03 28 00 11  0.0000000  0 8
C01  36993806.403   192636551.50707        -8.211          44.000    36993795.002   148958804.62808        -6.390          49.050  
C02  36591255.596   190540363.00206         5.572          41.300    36591246.431   147337907.19908         4.195          48.700  
C03  35936596.001   187131330.58207         2.691          44.250    35936587.218   144701747.94408         2.151          49.600  
C05  38314649.071   199514418.10506         6.764          40.950    38314641.743   154277174.40307         5.047          45.350  
C07  36152125.686   188253604.63907       281.702          43.850    36152117.808   145569591.24608       217.812          49.600  
C08  37114571.927   193265335.62807     -1121.072          43.350    37114563.439   149444996.06508      -866.748          48.000  
C10  36214531.287   188578681.41907       642.681          43.900    36214525.048   145821027.21208       496.947          48.400  
C12  22638847.422   117886419.97407     -1395.010          45.600    22638841.448    91157235.06008     -1078.735          50.050  


> 2016 03 28 00 11 30.0000000  0 8
C01  36993851.359   192636785.36407        -7.744          44.200    36993839.936   148958985.43108        -6.012          49.150  
C02  36591220.703   190540181.24906         6.313          41.200    36591211.572   147337766.64408         4.731          48.700  
C03  35936577.329   187131233.14707         3.361          44.150    35936568.530   144701672.60608         2.545          49.650  
C05  38314608.215   199514205.63506         7.065          41.000    38314600.938   154277010.06607         5.536          45.400  
C07  36150512.238   188245202.38607       278.037          44.100    36150504.311   145563094.08308       214.993          49.650  
C08  37121027.478   193298951.87807     -1120.598          43.100    37121019.047   149470990.25108      -866.494          48.050  
C10  36210835.262   188559435.20207       639.999          43.950    36210829.122   145806144.79608       494.874          48.400  
C12  22646895.269   117928326.46307     -1399.007          45.550    22646889.058    91189639.78508     -1081.911          50.050  


> 2016 03 28 00 12  0.0000000  0 8
C01  36993896.703   192637021.55907        -8.189          43.950    36993885.339   148959168.05308        -6.323          49.050  
C02  36591186.328   190540002.03506         5.899          41.100    36591177.174   147337628.03208         4.536          48.750  
C03  35936559.206   187131138.63707         2.950          44.250    35936550.381   144701599.48608         2.279          49.600  
C05  38314568.006   199513995.80406         6.761          40.700    38314560.656   154276847.79607         4.881          45.450  
C07  36148923.988   188236930.91507       273.325          44.250    36148915.904   145556698.03408       211.351          49.600  
C08  37127485.239   193332579.68907     -1121.217          43.000    37127476.865   149496993.39407      -867.060          47.950  
C10  36207158.236   188540287.56307       636.621          43.950    36207152.107   145791338.63008       492.122          48.400  
C12  22654970.554   117970375.73807     -1403.941          45.750    22654964.096    91222154.92008     -1085.729          49.900  


> 2016 03 28 00 12 30.0000000  0 8
C01  36993942.030   192637257.71807        -7.884          43.900    36993930.726   148959350.63508        -6.096          49.100  
C02  36591151.947   190539822.79606         5.987          40.850    36591142.751   147337489.41008         4.629          48.750  
C03  35936541.182   187131044.70907         3.155          44.150    35936532.351   144701526.82608         2.357          49.600  
C05  38314527.666   199513786.17806         6.704          40.600    38314520.487   154276685.64807         5.574          45.050  
C07  36147360.537   188228788.15607       269.201          44.150    36147352.226   145550401.50708       208.154          49.650  
C08  37133944.719   193366216.14307     -1121.371          42.950    37133936.312   149523003.20107      -867.085          47.950  
C10  36203499.822   188521236.59807       633.557          43.900    36203493.689   145776607.18408       489.750          48.650  
C12  22663072.509   118012563.26407     -1408.588          45.950    22663065.707    91254776.96208     -1089.196          49.950  
