     3.02           OBSERVATION DATA    M: Mixed            RINEX VERSION / TYPE
dconv               JAXA                20160525 004422 UTC PGM / RUN BY / DATE
DAE2                                                        MARKER NAME
23902M003                                                   MARKER NUMBER
KASI                JAXA                                    OBSERVER / AGENCY
5423R48783          TRIMBLE NETR9       5.10                REC # / TYPE / VERS
4923363230          TRM59800.00     SCIS                    ANT # / TYPE
 -3120042.2740  4084614.7220  3764026.8180                  APPROX POSITION XYZ
        0.0000        0.0000        0.0000                  ANTENNA: DELTA H/E/N
G   12 C1C L1C         L2W S2W C2X L2X S2X C5X L5X S5X      SYS / # / OBS TYPES
R   12 C1C L1C S1C C1P L1P S1P C2C L2C S2C C2P L2P S2P      SYS / # / OBS TYPES
E   12 C1X L1X S1X C5X L5X S5X C7X L7X S7X C8X L8X S8X      SYS / # / OBS TYPES
J   18 C1C L1C S1C C1X L1X S1X C1Z L1Z S1Z C2X L2X S2X C5X  SYS / # / OBS TYPES
       L5X S5X C6L L6L S6L                                  SYS / # / OBS TYPES
C    6 C1I L1I S1I C7I L7I S7I                              SYS / # / OBS TYPES
  2016     5    24     1    51   30.0000000     GPS         TIME OF FIRST OBS
  2016     5    24    23    59   30.0000000     GPS         TIME OF LAST OBS
                                                            SYS / PHASE SHIFT
 24 R01  1 R02 -4 R03  5 R04  6 R05  1 R06 -4 R07  5 R08  6 GLONASS SLOT / FRQ #
    R09 -6 R10 -7 R11 -1 R12 -1 R13 -2 R14 -7 R15  1 R16 -1 GLONASS SLOT / FRQ #
    R17  4 R18 -3 R19  3 R20  2 R21  4 R22 -3 R23  3 R24  2 GLONASS SLOT / FRQ #
 C1C    0.000 C1P    0.000 C2C    0.000 C2P    0.000        GLONASS COD/PHS/BIS#
                                                            END OF HEADER
> 2016  5 24  1 51 30.0000000  0 30
G25  23344764.805   122677539.971          40.750    23344775.324    95592951.219          23.750    23344774.961    95592945.210          41.000    23344776.035    91609905.057          46.500
G32  21330135.523   112090651.756          52.250    21330144.254    87343379.392          41.000    21330143.570    87343365.376          48.000    21330143.820    83704055.059          52.750
G 3  24002250.375   126132751.074          37.750    24002261.035    98285244.317          21.750    24002260.648    98285231.314          40.000    24002262.223    94190026.726          44.250
R 5  20754691.055   110946034.521          44.500    20754690.434   110945764.544          43.500    20754696.758    86291158.779          41.500    20754695.813    86291173.784          41.500
R23  22924105.445   122628267.646          44.250    22924103.848   122628517.665          43.000    22924111.039    95377769.892          34.500    22924111.398    95377770.903          32.500
G22  23385094.344   122889518.009          41.000    23385100.594    95758082.592          23.500
R24  21637631.531   115706163.527          42.500    21637630.426   115706168.550          41.000    21637635.543    89993687.469          31.250    21637634.730    89993694.482          29.500
R17  23170300.891   123989205.651          43.500    23170300.188   123989078.666          42.500    23170307.391    96435893.147          40.750    23170308.016    96435892.157          39.000
J 1  37726041.086   198251674.084          37.000    37726041.047   198251724.075          39.000    37726039.328   198251677.696          35.750    37726048.652   154481817.585          33.750    37726055.555   148045071.521          40.500    37726044.230   160918491.996          38.000
E19  25617640.547   134621587.693          43.500    25617647.230   100529115.855          43.000    25617644.559   103151605.331          42.750    25617645.066   101840363.700          48.500
E 9  26438101.820   138933167.750          39.250    26438110.070   103748824.211          43.000    26438106.227   106455304.160          42.000    26438108.223   105102062.797          48.250
E26  24456228.594   128518365.133          42.250    24456239.102    95971542.299          43.250    24456235.680    98475140.485          42.250    24456237.289    97223338.999          48.500
G16  23106500.859   121425492.989          40.750    23106508.508    94617312.249          25.000
R15  20558116.867                          48.500    20558116.543                          47.250    20558123.430                          45.000    20558122.559                          44.000
R 4  20735038.656   111035191.171          50.250    20735038.145   111034957.178          48.500    20735042.871    86360744.947          46.500    20735043.637    86360745.950          45.250
G29  21900420.797   115087277.291          48.000    21900427.918    89678624.826          35.750    21900427.250    89678627.805          44.000
G31  20668176.234   108611965.633          49.500    20668182.063    84632777.040          43.500    20668181.355    84632792.028          48.750
G26  21228820.508   111558262.737          50.750    21228829.906    86928557.768          40.500    21228829.262    86928556.756          48.000    21228829.621    83306533.238          53.500
G14  20856182.516   109599976.231          48.750    20856188.605    85402620.588          41.000
R14  20299596.977   108208298.906          45.500    20299595.965   108208289.923          44.000    20299604.328    84162032.457          41.000    20299603.953    84162043.459          40.000
C10  37488481.063   195212338.467          44.250    37488478.379   150950549.942          44.000
C12  25580565.977   133204728.487          35.500    25580565.500   103002339.729          39.000
C14  23338272.617   121528525.982          45.750    23338270.027    93973556.251          46.500
C 7  36341492.648   189239682.669          48.750    36341486.867   146332104.344          48.000
C 6  37743449.586   196540088.500          42.250    37743445.969   151977281.619          42.000
C 9  36989626.922   192614711.439          45.750    36989624.746   148941908.567          45.500
C 4  38178209.172   198803917.825          37.500    38178205.168   153727774.236          43.500
C 3  37480072.852   195168558.061          38.750    37480068.340   150916687.718          44.750
C 2  39069133.492   203443260.114          36.250    39069129.074   157315201.083          39.750
C 1  37350564.383   194494179.544          42.000    37350556.098   150395200.467          46.500
