     3.02           OBSERVATION DATA    J                   RINEX VERSION / TYPE
GR10 V3.22          CNES                20160327 235944 UTC PGM / RUN BY / DATE
SNR is mapped to RINEX snr flag value [1-9]                 COMMENT
LX:     < 12dBHz -> 1; 12-17dBHz -> 2; 18-23dBHz -> 3       COMMENT
       24-29dBHz -> 4; 30-35dBHz -> 5; 36-41dBHz -> 6       COMMENT
       42-47dBHz -> 7; 48-53dBHz -> 8; >= 54dBHz -> 9       COMMENT
CIBG                                                        MARKER NAME
23101M005                                                   MARKER NUMBER
REGINA              CNES                                    OBSERVER / AGENCY
1700870             LEICA GR10          3.22/6.521          REC # / TYPE / VERS
725039              LEIAR25.R4      LEIT                    ANT # / TYPE                                                
 -1837002.6304  6065627.3599  -716183.2716                  APPROX POSITION XYZ                                         
        0.0000        0.0000        0.0000                  ANTENNA: DELTA H/E/N                                        
J   12 C1C L1C D1C S1C C2S L2S D2S S2S C5Q L5Q D5Q S5Q      SYS / # / OBS TYPES
DBHZ                                                        SIGNAL STRENGTH UNIT
    30.000                                                  INTERVAL                                                    
  2016    03    28    00    00    0.0000000     QZS         TIME OF FIRST OBS
  2016    03    28    23    59   30.0000000     QZS         TIME OF LAST OBS
     0                                                      RCV CLOCK OFFS APPL
    17    17  1851     3                                    LEAP SECONDS
                                                            END OF HEADER

> 2016 03 28 00 00  0.0000000  0 1
J01  38819900.096   204000016.25308      1883.020          48.300    38819896.701   158961019.88907      1467.288          45.600    38819899.390   152337651.92808      1406.186          50.500  


> 2016 03 28 00 00 30.0000000  0 1
J01  38809145.526   203943500.57108      1884.621          48.450    38809142.099   158916981.68607      1468.535          45.250    38809144.837   152295448.64108      1407.384          50.550  


> 2016 03 28 00 01  0.0000000  0 1
J01  38798383.491   203886946.13308      1885.901          48.000    38798380.023   158872913.27007      1469.532          45.400    38798382.947   152253216.40808      1408.334          50.550  


> 2016 03 28 00 01 30.0000000  0 1
J01  38787614.120   203830353.07208      1887.066          48.350    38787610.748   158828814.76407      1470.441          45.550    38787613.722   152210955.33408      1409.173          50.750  


> 2016 03 28 00 02  0.0000000  0 1
J01  38776838.141   203773725.19808      1888.297          48.100    38776834.803   158784689.12107      1471.400          45.450    38776837.841   152168668.25608      1410.219          50.650  


> 2016 03 28 00 02 30.0000000  0 1
J01  38766054.917   203717059.07308      1889.586          48.250    38766051.640   158740533.69007      1472.405          45.650    38766054.694   152126352.62908      1411.032          50.600  


> 2016 03 28 00 03  0.0000000  0 1
J01  38755264.718   203660355.82908      1890.388          48.400    38755261.372   158696349.32107      1473.028          45.550    38755264.447   152084009.27108      1411.737          50.600  


> 2016 03 28 00 03 30.0000000  0 1
J01  38744468.102   203603618.61208      1891.577          48.550    38744464.609   158652138.47907      1473.956          45.050    38744467.698   152041640.56808      1412.429          50.600  


> 2016 03 28 00 04  0.0000000  0 1
J01  38733664.463   203546844.19808      1893.088          48.750    38733660.881   158607898.65007      1475.133          45.100    38733663.862   151999244.04908      1413.689          50.650  


> 2016 03 28 00 04 30.0000000  0 1
J01  38722853.990   203490034.05608      1893.961          48.850    38722850.212   158563630.97807      1475.813          45.050    38722853.227   151956820.86308      1414.352          50.600  


> 2016 03 28 00 05  0.0000000  0 1
J01  38712037.065   203433189.78108      1895.241          48.900    38712033.113   158519336.71207      1476.811          45.600    38712036.028   151914372.18708      1415.173          50.550  


> 2016 03 28 00 05 30.0000000  0 1
J01  38701213.752   203376311.94308      1896.882          48.700    38701209.632   158475016.29607      1478.090          45.250    38701212.419   151871898.44308      1416.514          50.400  


> 2016 03 28 00 06  0.0000000  0 1
J01  38690383.907   203319400.16208      1897.650          48.650    38690379.762   158430669.42907      1478.688          45.000    38690382.361   151829399.35908      1417.056          50.550  


> 2016 03 28 00 06 30.0000000  0 1
J01  38679547.531   203262454.65008      1898.987          48.550    38679543.404   158386296.26207      1479.729          45.200    38679545.904   151786875.07708      1418.126          50.600  


> 2016 03 28 00 07  0.0000000  0 1
J01  38668704.837   203205476.30108      1900.217          48.550    38668700.776   158341897.52007      1480.687          45.600    38668703.227   151744326.27608      1419.022          50.550  


> 2016 03 28 00 07 30.0000000  0 1
J01  38657855.630   203148464.30208      1900.524          48.250    38657851.777   158297472.56507      1480.927          45.350    38657854.178   151701752.35408      1419.286          50.500  


> 2016 03 28 00 08  0.0000000  0 1
J01  38647000.108   203091419.43207      1901.954          47.950    38646996.543   158253021.99807      1482.042          45.550    38646998.900   151659153.89708      1420.315          50.600  


> 2016 03 28 00 08 30.0000000  0 1
J01  38636138.711   203034343.64507      1902.931          47.900    38636135.481   158208547.33907      1482.803          45.750    38636137.840   151616532.34608      1421.077          50.550  


> 2016 03 28 00 09  0.0000000  0 1
J01  38625272.001   202977239.21607      1903.750          47.800    38625268.873   158164050.36007      1483.441          45.450    38625271.418   151573889.40408      1421.582          50.650  


> 2016 03 28 00 09 30.0000000  0 1
J01  38614399.140   202920102.15107      1904.991          47.950    38614396.091   158119527.95107      1484.408          45.700    38614398.805   151531222.08508      1422.513          50.600  


> 2016 03 28 00 10  0.0000000  0 1
J01  38603521.076   202862937.29007      1906.214          47.850    38603518.060   158074983.88207      1485.361          45.600    38603520.877   151488534.03308      1423.419          50.600  


> 2016 03 28 00 10 30.0000000  0 1
J01  38592637.302   202805742.39607      1906.981          47.750    38592634.241   158030416.42007      1485.959          45.750    38592637.218   151445823.51508      1424.263          50.600  


> 2016 03 28 00 11  0.0000000  0 1
J01  38581748.115   202748519.18207      1907.562          47.550    38581745.020   157985826.88407      1486.412          45.400    38581748.140   151403091.89308      1424.398          50.800  


> 2016 03 28 00 11 30.0000000  0 1
J01  38570853.027   202691265.19007      1909.122          47.300    38570850.014   157941213.37007      1487.627          45.550    38570853.142   151360337.26608      1425.577          50.700  


> 2016 03 28 00 12  0.0000000  0 1
J01  38559953.039   202633985.54007      1909.489          47.650    38559950.061   157896579.85807      1487.914          46.000    38559953.170   151317563.46908      1425.980          50.800  


> 2016 03 28 00 12 30.0000000  0 1
J01  38549047.796   202576678.28407      1910.668          47.300    38549044.796   157851924.82807      1488.831          45.800    38549047.916   151274769.07008      1426.863          50.600  