     3.02           OBSERVATION DATA    E                   RINEX VERSION / TYPE
GR10 V3.22          CNES                20160327 235944 UTC PGM / RUN BY / DATE
SNR is mapped to RINEX snr flag value [1-9]                 COMMENT
LX:     < 12dBHz -> 1; 12-17dBHz -> 2; 18-23dBHz -> 3       COMMENT
       24-29dBHz -> 4; 30-35dBHz -> 5; 36-41dBHz -> 6       COMMENT
       42-47dBHz -> 7; 48-53dBHz -> 8; >= 54dBHz -> 9       COMMENT
CIBG                                                        MARKER NAME
23101M005                                                   MARKER NUMBER
REGINA              CNES                                    OBSERVER / AGENCY
1700870             LEICA GR10          3.22/6.521          REC # / TYPE / VERS
725039              LEIAR25.R4      LEIT                    ANT # / TYPE                                                
 -1837002.6304  6065627.3599  -716183.2716                  APPROX POSITION XYZ                                         
        0.0000        0.0000        0.0000                  ANTENNA: DELTA H/E/N                                        
E   16 C1C L1C D1C S1C C5Q L5Q D5Q S5Q C7Q L7Q D7Q S7Q C8Q  SYS / # / OBS TYPES
       L8Q D8Q S8Q                                          SYS / # / OBS TYPES
DBHZ                                                        SIGNAL STRENGTH UNIT
    30.000                                                  INTERVAL                                                    
  2016    03    28    00    00    0.0000000     GAL         TIME OF FIRST OBS
  2016    03    28    23    59   30.0000000     GAL         TIME OF LAST OBS
     0                                                      RCV CLOCK OFFS APPL
E L8Q -0.25000                                              SYS / PHASE SHIFT
    17    17  1851     3                                    LEAP SECONDS
                                                            END OF HEADER

> 2016 03 28 00 00  0.0000000  0 3
E12  26726565.039   140449031.46448      1643.285          48.300    26726563.348   104880748.76907      1227.201          45.800    26726561.259   107616764.90208      1259.171          48.600    26726561.864   106248761.02007      1243.277          43.250  
E19  27138309.558   142612744.97547      -152.187          45.700    27138310.860   106496522.44707      -113.481          42.950    27138307.501   109274680.43807      -116.640          45.400    27138308.475   107885594.13206      -115.077          39.850  
E20  24474351.589   128613541.28746       178.280          41.050  


> 2016 03 28 00 00 30.0000000  0 3
E12  26717208.986   140399863.40148      1634.417          48.250    26717207.222   104844032.32207      1220.515          46.050    26717205.201   107579090.64408      1252.436          48.650    26717205.556   106211565.67707      1236.433          43.500  
E19  27139153.618   142617180.64747      -143.408          44.900    27139154.760   106499834.72407      -107.177          43.050    27139151.696   109278079.11907      -109.961          45.550    27139152.653   107888949.61206      -108.584          39.900  
E20  24473312.616   128608083.38247       185.430          42.050  


> 2016 03 28 00 01  0.0000000  0 3
E12  26707905.938   140350973.94248      1625.219          48.250    26707904.176   104807523.94607      1213.618          46.150    26707902.109   107541629.87508      1245.266          48.600    26707902.179   106174581.09907      1229.474          43.400  
E19  27139950.606   142621369.90847      -135.331          44.150    27139951.973   106502962.98707      -101.194          42.950    27139948.998   109281288.98907      -103.681          44.550    27139949.932   107892118.67706      -102.440          39.250  
E20  24472234.428   128602414.88447       192.531          42.350  


> 2016 03 28 00 01 30.0000000  0 3
E12  26698655.942   140302363.32948      1615.802          48.550    26698654.017   104771223.78807      1206.497          46.300    26698651.961   107504382.74608      1237.976          48.450    26698651.837   106137807.45607      1222.235          43.250  
E19  27140700.665   142625312.26247      -127.630          44.250    27140702.387   106505906.83007       -95.067          43.150    27140699.268   109284309.64607       -97.516          44.500    27140700.163   107895100.92806       -96.258          39.200  
E20  24471116.043   128596536.29647       199.242          43.150  


> 2016 03 28 00 02  0.0000000  0 3
E12  26689459.571   140254035.28948      1606.389          48.600    26689457.395   104735134.63207      1199.633          46.000    26689455.218   107467352.13408      1230.804          48.400    26689455.254   106101247.57507      1215.127          43.200  
E19  27141404.537   142629010.67347      -118.924          43.950    27141406.243   106508668.54107       -88.942          42.650    27141402.919   109287143.39707       -91.146          43.900    27141403.918   107897898.65406       -89.907          38.600  
E20  24469958.462   128590451.70147       206.293          43.400  


> 2016 03 28 00 02 30.0000000  0 3
E12  26680316.073   140205986.51448      1597.079          48.100    26680313.997   104699254.03407      1192.631          45.600    26680311.672   107430535.53208      1223.631          48.350    26680311.941   106064898.97207      1208.233          43.150  
E19  27142061.327   142632461.16247      -110.770          43.850    27142062.874   106511245.11007       -82.780          42.000    27142059.536   109289787.18407       -84.771          44.250    27142060.585   107900508.84406       -83.816          38.800  
E20  24468761.260   128584158.15947       213.270          43.750  


> 2016 03 28 00 03  0.0000000  0 3
E12  26671225.586   140158218.23747      1587.328          47.850    26671223.931   104663582.87207      1185.523          45.850    26671221.183   107393933.83508      1216.303          48.100    26671222.050   106028762.54307      1200.899          43.100  
E19  27142670.988   142635664.11747      -102.795          43.400    27142672.279   106513636.81006       -76.670          41.650    27142669.209   109292241.31207       -78.712          44.250    27142670.202   107902931.75406       -77.700          38.500  
E20  24467524.286   128577657.02147       220.069          43.100  


> 2016 03 28 00 03 30.0000000  0 3
E12  26662189.510   140110733.59948      1577.698          48.700    26662187.881   104628123.56407      1178.198          45.950    26662184.428   107357549.49507      1208.805          47.900    26662186.009   105992840.72007      1193.522          43.000  
E19  27143233.949   142638622.09647       -94.659          43.850    27143235.110   106515845.64206       -70.755          41.350    27143232.034   109294507.75207       -72.711          44.050    27143233.185   107905169.38406       -71.695          38.300  
E20  24466248.051   128570952.06247       226.478          43.100  


> 2016 03 28 00 04  0.0000000  0 3
E12  26653207.080   140063529.39648      1568.749          48.750    26653205.378   104592873.64007      1171.513          46.050    26653201.456   107321379.99907      1202.113          47.950    26653203.296   105957131.01207      1186.812          42.950  
E19  27143749.191   142641331.13547       -86.125          43.500    27143750.596   106517868.51606       -64.411          41.350    27143747.431   109296583.41307       -66.076          44.300    27143748.739   107907218.65406       -65.225          38.250  
E20  24464932.902   128564040.17547       233.896          43.600  


> 2016 03 28 00 04 30.0000000  0 3
E12  26644278.092   140016607.00448      1559.118          48.950    26644276.310   104557834.15107      1164.313          45.800    26644272.675   107285426.45008      1194.659          48.300    26644274.296   105921634.49307      1179.512          43.000  
E19  27144216.988   142643791.98847       -77.846          44.000    27144218.949   106519706.08206       -58.118          41.600    27144215.841   109298468.93707       -59.738          44.500    27144217.084   107909080.20906       -59.012          38.650  
E20  24463578.548   128556923.37346       240.485          41.850  


> 2016 03 28 00 05  0.0000000  0 3
E12  26635402.902   139969968.17348      1549.628          48.400    26635401.076   104523006.43207      1157.234          45.700    26635397.921   107249690.17808      1187.391          48.400    26635399.267   105886352.48807      1172.375          43.000  
E19  27144638.380   142646005.75447       -69.823          44.900    27144640.357   106521359.14606       -52.482          41.300    27144637.274   109300165.12307       -53.706          44.800    27144638.411   107910754.81806       -53.076          38.800  
E20  24462185.374   128549603.66147       247.406          42.000  


> 2016 03 28 00 05 30.0000000  0 3
E12  26626581.607   139923613.29048      1540.822          48.100    26626579.934   104488390.74407      1150.573          45.550    26626577.060   107214171.48108      1180.640          48.450    26626578.272   105851285.29707      1165.641          43.150  
E19  27145012.711   142647972.27447       -61.286          44.650    27145014.747   106522827.53906       -45.424          41.350    27145011.722   109301671.84707       -46.729          45.350    27145012.695   107912242.38006       -46.088          39.200  
E20  24460754.246   128542081.94346       254.218          41.900  


> 2016 03 28 00 06  0.0000000  0 3
E12  26617814.619   139877542.00548      1530.979          48.000    26617812.925   104453986.83107      1143.145          45.950    26617809.903   107178870.09208      1172.912          48.350    26617811.289   105816432.66207      1157.940          43.150  
E19  27145339.856   142649690.42647       -53.016          45.100    27145341.906   106524110.53207       -39.662          42.050    27145338.859   109302988.30807       -40.757          45.650    27145339.747   107913542.11406       -40.276          39.550  
E20  24459284.322   128534358.17146       260.860          40.900  


> 2016 03 28 00 06 30.0000000  0 3
E12  26609101.588   139831754.45548      1521.725          48.000    26609100.028   104419794.77807      1136.453          46.250    26609096.754   107143786.07508      1166.070          48.250    26609098.252   105781794.61407      1151.292          43.200  
E19  27145619.685   142651159.92047       -44.491          45.300    27145621.585   106525207.81406       -33.255          41.850    27145618.816   109304114.21207       -34.125          45.650    27145619.430   107914653.70406       -33.694          39.650  
E20  24457775.941   128526433.09746       267.828          40.900  


> 2016 03 28 00 07  0.0000000  0 3
E12  26600442.453   139786251.45847      1512.396          47.800    26600441.228   104385815.24007      1129.468          46.300    26600437.732   107108920.11808      1158.944          48.300    26600439.392   105747371.87207      1144.197          43.250  
E19  27145852.014   142652380.97347       -36.369          45.750    27145853.913   106526119.53306       -26.801          41.950    27145851.300   109305049.75707       -27.775          45.200    27145851.914   107915577.33806       -27.230          39.100  
E20  24456230.093   128518308.00747       274.719          42.600  


> 2016 03 28 00 07 30.0000000  0 3
E12  26591837.180   139741032.20247      1502.311          47.550    26591836.452   104352047.59907      1121.830          46.550    26591832.947   107074271.57608      1151.059          48.400    26591834.431   105713163.77407      1136.468          43.300  
E19  27146037.108   142653352.21247       -28.572          46.000    27146039.034   106526844.78207       -21.204          42.550    27146035.790   109305793.91207       -21.814          44.500    27146036.771   107916312.03306       -21.425          38.850  
E20  24454646.179   128509982.47247       280.625          42.550  


> 2016 03 28 00 08  0.0000000  0 3
E12  26583286.091   139696097.27247      1493.145          47.550    26583285.720   104318492.27207      1114.923          46.550    26583282.723   107039840.88608      1144.023          48.700    26583283.555   105679170.77307      1129.442          43.500  
E19  27146174.495   142654073.73747       -19.840          45.600    27146176.449   106527383.58207       -15.002          42.100    27146172.751   109306346.74807       -15.218          43.950    27146174.003   107916857.85006       -15.029          38.400  
E20  24453023.961   128501457.65647       287.636          42.850  


> 2016 03 28 00 08 30.0000000  0 3
E12  26574789.697   139651448.66047      1483.545          47.650    26574789.132   104285150.75007      1107.791          46.100    26574787.035   107005629.59508      1136.695          48.900    26574787.218   105645394.36307      1122.238          43.750  
E19  27146264.625   142654547.04047       -11.588          45.100    27146266.370   106527737.02306        -8.870          41.100    27146262.593   109306709.41007        -9.005          43.650    27146264.050   107917215.90006        -8.865          37.950  
E20  24451364.560   128492736.19747       294.297          43.100  


> 2016 03 28 00 09  0.0000000  0 3
E12  26566348.466   139607088.46448      1473.717          48.000    26566347.558   104252024.62007      1100.422          46.250    26566345.905   106971639.29708      1129.122          48.700    26566345.772   105611836.14807      1114.758          43.450  
E19  27146307.514   142654773.68147        -3.460          45.300    27146309.520   106527906.24806        -2.719          41.300    27146305.536   109306883.05607        -2.814          43.650    27146307.112   107917387.35006        -2.867          37.950  
E20  24449668.043   128483820.61947       300.241          43.000  


> 2016 03 28 00 09 30.0000000  0 3
E12  26557961.317   139563012.61148      1464.515          48.250    26557960.052   104219110.80107      1093.471          46.150    26557958.518   106937866.86608      1121.930          48.750    26557958.446   105578493.02707      1107.620          43.550  
E19  27146302.850   142654749.03947         4.732          45.650    27146304.674   106527887.79706         3.668          41.000    27146300.754   109306864.12507         3.650          43.550    27146302.396   107917368.65506         3.611          37.850  
E20  24447933.590   128474707.33447       306.983          42.350  


> 2016 03 28 00 10  0.0000000  0 3
E12  26549629.218   139519225.78548      1454.973          48.450    26549627.834   104186412.81307      1086.405          46.400    26549626.184   106904315.89208      1114.754          48.900    26549626.135   105545368.54207      1100.558          43.800  
E19  27146251.098   142654477.38647        13.406          45.750    27146252.891   106527684.89206         9.898          41.000    27146249.091   109306655.93107         9.988          43.800    27146250.720   107917163.09906        10.027          37.900  
E20  24446162.877   128465401.76047       313.851          42.800  


> 2016 03 28 00 10 30.0000000  0 3
E12  26541351.766   139475725.58148      1445.601          48.650    26541350.289   104153928.86007      1079.475          46.200    26541348.166   106870984.53508      1107.619          48.650    26541348.334   105512460.88307      1093.540          43.500  
E19  27146151.746   142653955.93647        21.830          45.550    27146153.969   106527295.40006        16.329          41.150    27146149.951   109306256.29207        16.595          43.550    27146151.532   107916768.53006        16.496          37.850  
E20  24444355.178   128455902.17747       320.047          42.950  


> 2016 03 28 00 11  0.0000000  0 3
E12  26533129.303   139432513.69348      1435.147          48.700    26533127.654   104121660.19907      1071.671          46.550    26533125.068   106837874.09508      1099.754          48.850    26533125.443   105479771.33807      1085.708          43.650  
E19  27146005.488   142653185.93547        29.460          45.900    27146007.598   106526720.34106        21.956          41.250    27146003.582   109305666.21507        22.568          43.800    27146005.080   107916185.96906        22.169          37.900  
E20  24442510.827   128446210.73847       325.648          43.000  


> 2016 03 28 00 11 30.0000000  0 3
E12  26524960.597   139389587.29948      1426.145          48.250    26524959.084   104089604.75507      1064.986          46.300    26524956.341   106804982.43108      1092.706          48.800    26524956.899   105447297.78407      1078.845          43.550  
E19  27145811.478   142652164.30747        38.280          46.100    27145813.341   106525957.32206        28.662          41.400    27145809.264   109304883.32007        29.407          44.200    27145810.732   107915413.01406        29.121          38.250  
E20  24440629.924   128436325.42347       332.790          43.400  


> 2016 03 28 00 12  0.0000000  0 3
E12  26516846.989   139346951.47448      1416.357          48.450    26516845.596   104057766.28007      1057.539          46.450    26516842.833   106772313.39908      1085.114          48.600    26516843.642   105415044.03107      1071.341          43.400  
E19  27145570.179   142650895.61547        46.146          46.150    27145572.170   106525009.84706        34.665          41.650    27145568.182   109303911.15107        35.335          44.650    27145569.379   107914453.19706        34.855          38.500  
E20  24438713.084   128426251.83147       338.290          43.700  


> 2016 03 28 00 12 30.0000000  0 3
E12  26508788.676   139304604.20648      1406.785          48.850    26508787.180   104026143.28907      1050.499          46.200    26508784.246   106739865.44708      1077.954          48.450    26508785.271   105383008.56107      1064.215          43.450  
E19  27145281.416   142649377.45047        54.643          46.500    27145283.316   106523876.08906        40.734          40.700    27145279.778   109302747.80307        41.934          44.550    27145280.602   107913304.63506        41.295          38.300  
E20  24436759.929   128415988.53047       345.284          43.000  